[
  {
    "id": "sample_1",
    "title": "Healthcare Access Story",
    "lat": 40.7128,
    "lng": -74.006,
    "type": "story",
    "category": "healthcare",
    "country": "United States",
    "city": "New York"
  },
  {
    "id": "sample_2",
    "title": "Workplace Rights Campaign",
    "lat": 51.5074,
    "lng": -0.1278,
    "type": "story",
    "category": "workplace",
    "country": "United Kingdom",
    "city": "London"
  },
  {
    "id": "sample_3",
    "title": "Education Equality Initiative",
    "lat": 48.8566,
    "lng": 2.3522,
    "type": "story",
    "category": "education",
    "country": "France",
    "city": "Paris"
  },
  {
    "id": "story_3",
    "title": "Test",
    "lat": 19.054999,
    "lng": 72.8692035,
    "type": "story",
    "category": "story",
    "country": "India",
    "city": "Mumbai "
  },
  {
    "id": "test_123",
    "title": "Test Story",
    "lat": 40.7127281,
    "lng": -74.0060152,
    "type": "story",
    "category": "story",
    "country": "United States",
    "city": "New York"
  },
  {
    "id": "test_api_123",
    "title": "API Test Story",
    "lat": 48.8534951,
    "lng": 2.3483915,
    "type": "story",
    "category": "story",
    "country": "France",
    "city": "Paris"
  },
  {
    "id": "story_4",
    "title": "Melissa Test",
    "lat": 37.3361663,
    "lng": -121.890591,
    "type": "story",
    "category": "story",
    "country": "United States",
    "city": "SAN JOSE"
  }
]